,City,Cloudiness,Country,Date,Humidity,Lat,Lng,Max Temp,Wind Speed,Weather
0,nizhniy kuranakh,92,ru,1554567665,69,58.84,125.49,27.44,3.74,Clouds
1,dhidhdhoo,0,mv,1554567666,100,6.88,73.1,84.95,6.08,Clear
2,perevolotskiy,64,ru,1554567606,74,51.88,54.19,49.85,8.99,Clouds
3,acapulco,20,mx,1554562020,69,16.86,-99.88,80.6,2.24,Clouds
4,talnakh,76,ru,1554567668,84,69.49,88.39,19.97,6.64,Clouds
5,robertsport,76,lr,1554567668,95,6.75,-11.37,83.78,10.67,Clouds
6,kayes,12,ml,1554567669,22,14.44,-11.44,101.78,10.45,Clouds
7,new norfolk,0,au,1554567369,76,-42.78,147.06,48.67,8.05,Clear
8,bachaquero,0,ve,1554567670,62,9.96,-71.12,88.73,3.4,Clear
9,iralaya,88,hn,1554567672,91,15.0,-83.23,79.82,5.75,Clouds
10,tuatapere,0,nz,1554567673,100,-46.13,167.69,44.18,3.62,Clear
11,klaksvik,80,fo,1554564000,61,62.23,-6.59,46.4,10.29,Clouds
12,ushuaia,90,ar,1554562800,74,-54.81,-68.31,37.4,20.8,Rain
13,mananjary,20,mg,1554567675,96,-19.16,46.8,64.25,3.06,Rain
14,barguzin,0,ru,1554567676,67,53.62,109.63,5.3,1.95,Clear
15,calama,0,cl,1554567502,12,-22.46,-68.93,69.73,8.05,Clear
16,severo-kurilsk,92,ru,1554567677,97,50.68,156.12,31.94,28.12,Clouds
17,taoudenni,12,ml,1554567678,21,22.68,-3.98,80.9,13.35,Clouds
18,dikson,80,ru,1554567678,100,73.51,80.55,18.53,9.55,Clouds
19,kloulklubed,75,pw,1554565800,94,7.04,134.26,78.8,9.44,Clouds
20,mbour,24,sn,1554564600,42,14.41,-16.97,76.48,20.8,Clouds
21,praxedis guerrero,1,mx,1554567469,23,31.37,-106.02,64.17,3.36,Clear
22,mahebourg,75,mu,1554567241,74,-20.41,57.7,77.76,11.41,Rain
23,margate,76,za,1554567561,100,-30.86,30.37,67.04,10.56,Rain
24,atuona,92,pf,1554567683,98,-9.8,-139.03,82.88,17.16,Clouds
25,carnarvon,0,au,1554566400,73,-24.87,113.63,73.4,14.99,Clear
26,bredasdorp,0,za,1554567365,68,-34.53,20.04,69.22,13.87,Clear
27,mar del plata,0,ar,1554567623,39,-46.43,-67.52,69.11,6.87,Clear
28,rikitea,68,pf,1554567687,100,-23.12,-134.97,76.94,15.03,Clouds
29,cape town,0,za,1554567651,68,-33.93,18.42,69.53,11.41,Clear
30,georgetown,12,sh,1554567688,99,-7.93,-14.42,82.34,16.49,Clouds
31,norman wells,75,ca,1554562800,66,65.28,-126.83,14.0,10.29,Clouds
32,port alfred,8,za,1554567680,87,-33.59,26.89,64.99,5.01,Clear
33,hilo,20,us,1554567557,68,19.71,-155.08,64.62,6.93,Clouds
34,san patricio,75,mx,1554561900,83,19.22,-104.7,75.2,2.17,Clouds
35,emerald,0,au,1554567423,77,-23.53,148.16,65.66,5.82,Clear
36,walvis bay,0,na,1554566527,72,-22.95,14.51,60.89,6.93,Clear
37,husavik,75,is,1554566400,55,66.04,-17.34,39.2,10.29,Clouds
38,mayor pablo lagerenza,36,py,1554567695,67,-19.93,-60.77,70.82,14.47,Clouds
39,biak,36,id,1554567696,98,-0.91,122.88,79.46,1.16,Clouds
40,albany,64,au,1554567696,92,-35.02,117.88,56.33,6.98,Clouds
41,aklavik,5,ca,1554562800,84,68.22,-135.01,2.3,3.36,Clear
42,isangel,0,vu,1554567698,100,-19.55,169.27,77.57,16.82,Clear
43,cabedelo,75,br,1554562800,58,-6.97,-34.84,87.8,11.41,Clouds
44,busselton,24,au,1554567682,52,-33.64,115.35,52.32,9.66,Clouds
45,manadhoo,0,mv,1554567546,100,5.77,73.38,84.86,5.41,Clear
46,dong hoi,36,vn,1554567700,96,17.48,106.6,78.92,10.22,Clouds
47,koudougou,0,bf,1554567702,29,12.25,-2.37,100.52,5.75,Clear
48,dunedin,0,nz,1554567328,64,-45.87,170.5,48.99,5.99,Clear
49,butaritari,76,ki,1554567703,100,3.07,172.79,77.12,6.64,Rain
50,cayenne,75,gf,1554564600,74,4.94,-52.33,84.2,17.22,Clouds
51,vaini,20,to,1554562800,94,-21.2,-175.2,71.6,2.24,Clouds
52,bend,75,us,1554567427,65,44.06,-121.32,40.44,10.29,Rain
53,porto recanati,0,it,1554567655,51,43.44,13.66,58.35,8.05,Clear
54,kaitangata,0,nz,1554567663,65,-46.28,169.85,42.01,4.0,Clear
55,gurupi,48,br,1554567653,92,-11.73,-49.07,82.34,5.19,Clouds
56,brae,8,gb,1554565800,70,60.4,-1.35,48.2,19.46,Clear
57,kapaa,1,us,1554567410,82,22.08,-159.32,65.46,5.82,Clear
58,mana,92,gf,1554567661,65,5.67,-53.78,83.42,5.08,Clouds
59,cap malheureux,75,mu,1554567541,74,-19.98,57.61,78.26,11.41,Rain
60,onguday,88,ru,1554567711,93,50.75,86.14,30.5,2.17,Clouds
61,sobolevo,32,ru,1554567711,53,54.43,31.9,49.31,7.99,Clouds
62,cabo san lucas,5,mx,1554567501,64,22.89,-109.91,72.59,5.82,Clear
63,pisco,75,pe,1554562800,30,-13.71,-76.2,71.6,3.36,Clouds
64,wanning,36,cn,1554567714,98,18.8,110.4,77.39,5.19,Clouds
65,luderitz,8,na,1554567715,79,-26.65,15.16,63.98,11.9,Clear
66,te anau,0,nz,1554567715,75,-45.41,167.72,23.57,3.18,Clear
67,berlevag,88,no,1554567716,100,70.86,29.09,34.28,11.68,Rain
68,santa cruz,0,cr,1554562800,48,10.26,-85.58,87.8,3.36,Clear
69,bathsheba,75,bb,1554562800,83,13.22,-59.52,75.2,20.8,Rain
70,san juan,40,us,1554567604,69,26.19,-98.16,79.77,16.11,Haze
71,bluff,0,nz,1554567719,100,-46.6,168.33,52.1,8.1,Clear
72,tiksi,48,ru,1554567720,76,71.64,128.87,11.15,2.73,Clouds
73,jamestown,68,sh,1554567721,100,-15.94,-5.72,76.85,14.03,Clouds
74,longyearbyen,75,sj,1554562200,57,78.22,15.64,21.2,13.87,Clouds
75,taltal,0,cl,1554567722,71,-25.41,-70.49,68.21,1.39,Clear
76,tuktoyaktuk,20,ca,1554562800,76,69.44,-133.03,-7.61,12.75,Clouds
77,bima,8,id,1554567725,100,-8.45,118.73,73.97,2.51,Clear
78,sri aman,12,my,1554562800,94,1.24,111.46,78.26,2.51,Clouds
79,saint-philippe,0,re,1554567446,69,-21.36,55.77,75.07,19.46,Clear
80,lavrentiya,36,ru,1554567727,85,65.58,-170.99,4.58,4.74,Clouds
81,kodiak,1,us,1554567723,48,39.95,-94.76,65.82,13.87,Clear
82,labuhan,92,id,1554567729,97,-2.54,115.51,72.89,1.28,Rain
83,petropavlovsk-kamchatskiy,40,ru,1554562800,59,53.05,158.65,37.4,15.66,Clouds
84,punta arenas,40,cl,1554566555,65,-53.16,-70.91,46.24,41.38,Clouds
85,soloneshnoye,92,ru,1554567731,81,51.65,84.32,30.05,5.53,Clouds
86,srednekolymsk,0,ru,1554567732,88,67.46,153.71,8.09,2.73,Clear
87,marsh harbour,0,bs,1554567732,98,26.54,-77.06,76.94,7.65,Clear
88,narsaq,75,gl,1554565800,26,60.91,-46.05,44.6,12.75,Clouds
89,kalabo,64,zm,1554567734,27,-15.0,22.67,91.79,4.63,Clouds
90,thompson,20,ca,1554562800,34,55.74,-97.86,17.6,5.82,Clouds
91,hermanus,0,za,1554567365,69,-34.42,19.24,73.87,5.01,Clear
92,avarua,12,ck,1554564600,94,-21.21,-159.78,68.0,1.12,Clouds
93,arlit,8,ne,1554567737,24,18.74,7.39,99.62,8.66,Clear
94,chumikan,88,ru,1554567737,91,54.72,135.31,29.24,10.11,Clouds
95,skibbereen,75,ie,1554564600,81,51.55,-9.27,50.0,14.99,Clouds
96,viedma,0,ar,1554567739,35,-40.81,-62.99,73.25,10.22,Clear
97,cervo,92,es,1554567606,61,43.67,-7.41,47.88,1.99,Rain
98,moron,12,mn,1554567741,71,47.38,110.32,17.63,2.95,Clouds
99,lagos,75,pt,1554567429,63,37.1,-8.67,58.33,24.16,Rain
100,arraial do cabo,0,br,1554566400,74,-22.97,-42.02,88.3,13.87,Clear
101,nanortalik,44,gl,1554567743,93,60.14,-45.24,33.56,23.09,Clouds
102,chuy,32,uy,1554567744,85,-33.69,-53.46,70.82,9.78,Clouds
103,la ronge,90,ca,1554562800,63,55.1,-105.3,28.4,6.93,Clouds
104,waitati,0,nz,1554567328,64,-45.75,170.57,48.99,5.99,Clear
105,beira,40,mz,1554566400,88,-19.84,34.84,80.6,13.87,Clouds
106,tasiilaq,90,gl,1554565800,92,65.61,-37.64,32.0,29.97,Clouds
107,qaanaaq,32,gl,1554567749,89,77.48,-69.36,5.3,11.9,Clouds
108,saskylakh,44,ru,1554567750,78,71.97,114.09,15.65,16.26,Clouds
109,port elizabeth,0,za,1554566400,88,-33.92,25.57,64.4,12.75,Clear
110,flinders,90,au,1554567732,88,-34.58,150.85,66.43,5.82,Clouds
111,provideniya,0,ru,1554567752,100,64.42,-173.23,11.6,5.19,Clear
112,pangoa,92,pe,1554567753,99,-12.12,-73.0,65.96,1.83,Rain
113,chajul,0,gt,1554567753,60,15.48,-91.04,68.57,0.6,Clear
114,terrace,75,ca,1554567356,100,54.52,-128.61,39.04,3.36,Clouds
115,kenai,90,us,1554567724,64,60.55,-151.26,33.69,13.87,Snow
116,paraiso,5,mx,1554567617,37,24.01,-104.61,57.63,4.18,Clear
117,hirara,8,jp,1554567756,100,24.8,125.28,74.78,8.21,Clear
118,rio gallegos,20,ar,1554562800,77,-51.62,-69.22,50.0,40.26,Clouds
119,torbay,90,ca,1554567472,40,47.66,-52.73,37.15,19.46,Clouds
120,magadan,0,ru,1554567758,85,59.56,150.8,29.33,13.69,Clear
121,bethel,75,us,1554564480,85,60.79,-161.76,19.83,6.93,Clouds
122,najran,75,sa,1554562800,44,17.54,44.22,78.8,11.41,Thunderstorm
123,smolenka,75,ru,1554564600,70,54.28,56.05,47.7,6.71,Clouds
124,shangrao,0,cn,1554567649,85,28.45,117.97,51.02,2.84,Clear
125,matara,8,lk,1554567762,93,5.95,80.54,81.35,3.18,Clear
126,fort smith,90,us,1554567741,68,35.39,-94.42,67.41,6.93,Clouds
127,palmer,90,us,1554567753,74,61.6,-149.11,31.46,4.7,Snow
128,verkhoyansk,0,ru,1554567765,70,67.55,133.39,6.2,2.39,Clear
129,barrow,1,us,1554567686,72,39.51,-90.4,62.37,11.41,Clear
130,canico,40,pt,1554567170,59,32.63,-16.85,64.09,6.93,Clouds
131,jishou,0,cn,1554567767,82,28.26,109.7,59.3,2.95,Clear
132,ouagadougou,8,bf,1554566400,15,12.37,-1.53,105.8,6.93,Clear
133,burgeo,80,ca,1554567768,94,47.61,-57.61,32.48,17.72,Clouds
134,kalmar,0,se,1554567304,57,56.66,16.36,48.42,9.17,Clear
135,shingu,0,jp,1554567609,96,33.72,135.99,60.83,12.12,Clear
136,isla mujeres,40,mx,1554566551,70,21.23,-86.73,84.11,14.99,Clouds
137,beringovskiy,68,ru,1554567771,96,63.05,179.32,15.02,10.78,Clouds
138,faanui,56,pf,1554567772,100,-16.48,-151.75,84.14,16.15,Clouds
139,werda,64,bw,1554567723,42,-25.27,23.28,81.08,9.22,Rain
140,mattru,32,sl,1554567773,47,7.62,-11.83,95.12,7.76,Rain
141,castle rock,90,us,1554567744,93,46.27,-122.91,45.19,14.99,Rain
142,ca mau,0,vn,1554567635,91,9.18,105.15,80.0,8.43,Clear
143,florence,75,us,1554567697,68,34.2,-79.77,66.22,4.7,Clouds
144,nelson bay,64,au,1554567667,88,-32.72,152.14,67.01,14.81,Clouds
145,alice springs,0,au,1554566400,43,-23.7,133.88,71.6,5.82,Clear
146,moranbah,0,au,1554567779,78,-22.0,148.04,67.58,7.76,Clear
147,ibra,0,om,1554567780,24,22.69,58.55,80.45,2.17,Clear
148,yellowknife,75,ca,1554567568,65,62.45,-114.38,7.57,11.41,Clouds
149,ancud,90,cl,1554562800,93,-41.87,-73.83,53.6,14.99,Clouds
150,haines junction,56,ca,1554567783,80,60.75,-137.51,11.96,1.61,Clouds
151,kununurra,90,au,1554566400,88,-15.77,128.74,77.0,7.65,Clouds
152,castro,90,cl,1554562800,93,-42.48,-73.76,53.6,14.99,Clouds
153,hobart,0,au,1554567369,76,-42.88,147.33,48.67,8.05,Clear
154,takoradi,0,gh,1554567785,88,4.89,-1.75,86.03,10.89,Clear
155,sinnamary,92,gf,1554567786,94,5.38,-52.96,80.54,11.68,Clouds
156,nome,90,us,1554567755,88,30.04,-94.42,72.79,5.82,Rain
157,keetmanshoop,0,na,1554562800,10,-26.57,18.15,89.6,6.93,Clear
158,verkhnyaya toyma,0,ru,1554567788,74,62.24,45.0,39.77,3.18,Clear
159,qandala,0,so,1554567789,60,11.47,49.87,81.8,2.17,Clear
160,ponta grossa,80,br,1554567790,100,-25.09,-50.16,71.9,9.55,Rain
161,mount gambier,75,au,1554562800,93,-37.83,140.78,46.4,5.82,Clouds
162,nhulunbuy,75,au,1554566400,88,-12.18,136.78,78.8,6.93,Clouds
163,eyl,0,so,1554567792,82,7.98,49.82,82.97,8.77,Clear
164,peniche,40,pt,1554567642,66,39.36,-9.38,55.94,12.75,Clouds
165,sassandra,12,ci,1554567793,94,4.95,-6.09,84.77,14.58,Clouds
166,xichang,0,cn,1554567794,86,27.88,102.25,38.96,1.72,Clear
167,deputatskiy,68,ru,1554567795,79,69.3,139.9,7.37,2.73,Clouds
168,ciudad bolivar,0,ve,1554567795,46,8.12,-63.55,89.36,10.67,Clear
169,chiredzi,12,zw,1554567796,51,-21.05,31.67,84.95,12.68,Clouds
170,naze,24,jp,1554567797,100,28.37,129.48,70.55,9.78,Clouds
171,chapais,90,ca,1554566280,74,49.78,-74.86,35.6,12.75,Clouds
172,cidreira,100,br,1554567798,92,-30.17,-50.22,71.36,7.65,Rain
173,nurota,0,uz,1554564600,68,40.56,65.69,64.4,6.93,Clear
174,saint-francois,20,gp,1554564600,45,16.25,-61.27,86.0,17.22,Clouds
175,pevek,8,ru,1554567801,71,69.7,170.27,1.34,7.87,Clear
176,komsomolskiy,92,ru,1554567801,92,67.55,63.78,28.07,23.98,Clouds
177,palana,0,ru,1554567802,74,59.08,159.95,19.25,4.18,Clear
178,shujalpur,0,in,1554564600,21,23.4,76.72,89.6,9.17,Clear
179,mayya,0,ru,1554564600,58,61.74,130.28,28.4,6.71,Clear
180,khoy,48,ir,1554567804,100,38.55,44.95,44.63,3.18,Rain
181,ilulissat,75,gl,1554565800,47,69.22,-51.1,37.4,27.51,Clouds
182,guerrero negro,80,mx,1554567805,88,27.97,-114.04,60.38,12.46,Rain
183,liuhe,0,cn,1554567806,42,42.28,125.73,27.08,4.18,Clear
184,bambous virieux,75,mu,1554567541,74,-20.34,57.76,77.86,11.41,Rain
185,puerto colombia,0,co,1554567339,62,10.99,-74.96,85.57,5.82,Clear
186,curup,36,id,1554567809,94,-3.47,102.53,71.81,0.72,Clouds
187,ribeira grande,40,pt,1554566400,82,38.52,-28.7,62.6,23.04,Clouds
188,neiafu,75,to,1554562800,94,-18.65,-173.98,78.8,2.24,Clouds
189,teya,48,ru,1554567811,67,60.37,92.63,33.47,7.99,Clouds
190,vilhena,90,br,1554562800,88,-12.74,-60.15,69.8,8.05,Clouds
191,hami,80,cn,1554567812,34,42.84,93.51,58.4,6.31,Clouds
192,victoria,40,sc,1554562800,70,-4.62,55.45,86.0,3.36,Clouds
193,sao filipe,0,cv,1554567814,91,14.9,-24.5,72.44,19.73,Clear
194,chara,36,ru,1554567814,79,56.9,118.26,10.7,2.17,Clouds
195,upernavik,32,gl,1554567815,85,72.79,-56.15,31.22,22.08,Clouds
196,port blair,0,in,1554567816,99,11.67,92.75,85.04,8.55,Clear
197,sao geraldo do araguaia,80,br,1554567778,79,-6.4,-48.55,84.5,4.18,Clouds
198,dzilam gonzalez,8,mx,1554567818,58,21.28,-88.93,86.03,7.65,Clear
199,katsuura,20,jp,1554566702,71,33.93,134.5,53.11,4.7,Clouds
200,sungaipenuh,68,id,1554567733,95,-2.08,101.38,68.66,1.28,Clouds
201,grindavik,90,is,1554566400,65,63.84,-22.43,41.94,12.75,Clouds
202,omaruru,0,na,1554567821,22,-21.42,15.95,82.61,10.67,Clear
203,kruisfontein,0,za,1554567822,75,-34.0,24.73,67.4,16.49,Clear
204,impfondo,32,cg,1554567822,57,1.64,18.07,90.62,3.4,Clouds
205,kavieng,76,pg,1554567823,100,-2.57,150.8,83.15,9.22,Rain
206,hithadhoo,20,mv,1554567824,100,-0.6,73.08,84.5,7.31,Clouds
207,cherskiy,24,ru,1554567825,54,68.75,161.3,-0.19,1.5,Clouds
208,khatanga,44,ru,1554567826,79,71.98,102.47,22.94,13.69,Clouds
209,ningxiang,0,cn,1554562800,53,28.28,112.55,71.6,2.24,Clear
210,san cristobal,36,ec,1554567827,100,-1.02,-79.44,67.04,2.73,Rain
211,atar,8,mr,1554567673,21,20.52,-13.05,83.87,9.44,Clear
212,huilong,0,cn,1554567829,77,31.15,106.5,60.38,3.51,Clear
213,siemiatycze,20,pl,1554567615,32,52.43,22.86,57.99,4.0,Clouds
214,port lincoln,0,au,1554567831,100,-34.72,135.86,56.78,6.64,Clear
215,chokurdakh,88,ru,1554567831,85,70.62,147.9,14.12,9.22,Clouds
216,ende,0,id,1554567833,100,-8.84,121.65,81.08,6.76,Rain
217,puerto ayora,20,ec,1554567357,70,-0.74,-90.35,82.18,10.29,Clouds
218,shelbyville,1,us,1554567828,63,39.41,-88.79,61.54,9.17,Clear
219,angoram,24,pg,1554567835,97,-4.06,144.07,76.49,1.95,Clouds
220,kikwit,20,cd,1554567836,64,-5.04,18.82,90.62,3.4,Rain
221,madaoua,8,ne,1554567837,17,14.07,5.96,108.08,10.0,Clear
222,juneau,90,us,1554562560,93,58.3,-134.42,39.2,3.74,Rain
223,garowe,0,so,1554567607,28,8.41,48.48,87.11,5.53,Clear
224,dingle,20,ie,1554566400,62,52.14,-10.27,57.2,12.75,Clouds
225,saldanha,0,za,1554566400,37,-33.01,17.94,71.6,12.75,Clear
226,leningradskiy,80,ru,1554567841,83,69.38,178.42,5.57,20.18,Clouds
227,prachuap khiri khan,12,th,1554567841,81,11.81,99.79,78.47,3.62,Clouds
228,fortuna,90,us,1554567801,100,40.6,-124.16,52.72,20.8,Clouds
229,vanavara,8,ru,1554567843,76,60.35,102.28,23.75,5.64,Clear
230,deniliquin,0,au,1554567332,74,-35.53,144.96,52.0,2.84,Clear
231,mount pleasant,1,us,1554567539,73,32.79,-79.86,68.7,3.74,Clear
232,ngaoundere,40,cm,1554562800,69,7.32,13.58,75.2,4.7,Clouds
233,iqaluit,75,ca,1554567731,79,63.75,-68.52,19.24,2.24,Clouds
234,souillac,75,mu,1554567841,74,-20.52,57.52,77.83,11.41,Rain
235,coihaique,75,cl,1554562800,72,-45.58,-72.07,57.94,5.82,Clouds
236,comodoro rivadavia,40,ar,1554562800,40,-45.87,-67.48,71.6,17.22,Clouds
237,casa nova,92,br,1554567849,75,-11.77,-39.23,84.68,4.63,Clouds
238,rocha,88,uy,1554567851,64,-34.48,-54.34,69.47,4.41,Clouds
239,ust-nera,0,ru,1554567851,62,64.57,143.24,6.92,2.17,Clear
240,waingapu,56,id,1554567853,94,-9.65,120.26,74.33,5.86,Clouds
241,lyubim,8,ru,1554567853,84,58.36,40.69,41.3,6.98,Clear
242,geraldton,0,au,1554564600,67,-28.77,114.6,62.6,14.99,Clear
243,nouadhibou,20,mr,1554562800,44,20.93,-17.03,77.0,16.11,Clouds
244,ahipara,8,nz,1554567855,100,-35.17,173.16,50.75,3.62,Clear
245,nuuk,75,gl,1554567730,44,64.17,-51.74,41.0,13.87,Clouds
246,sayyan,36,ye,1554567857,42,15.17,44.32,69.02,1.16,Rain
247,kieta,68,pg,1554567857,100,-6.22,155.63,78.11,3.96,Clouds
248,tanete,36,id,1554567858,90,-3.94,119.78,77.57,5.08,Clouds
249,kyabe,0,td,1554567859,14,9.45,18.94,105.83,4.74,Clear
250,stornoway,44,gb,1554565800,87,58.21,-6.39,48.2,19.46,Clouds
251,tera,0,ne,1554567861,23,14.01,0.75,105.92,6.87,Clear
252,solnechnyy,76,ru,1554567862,87,50.72,136.64,29.15,5.97,Clouds
253,lopsmarka,40,no,1554567637,52,67.31,14.45,41.0,11.41,Clouds
254,ponta delgada,40,pt,1554567843,72,37.73,-25.67,58.39,23.04,Clouds
255,soyo,75,ao,1554562800,94,-6.13,12.37,80.6,3.36,Thunderstorm
256,egvekinot,8,ru,1554567865,68,66.32,-179.17,0.8,4.18,Clear
257,guarapari,0,br,1554564860,49,-20.67,-40.5,92.53,11.41,Clear
258,korla,64,cn,1554567785,72,41.76,86.15,63.0,3.0,Rain
259,aranos,0,na,1554567867,14,-24.14,19.11,89.9,4.97,Clear
260,nikolskoye,0,ru,1554567636,24,59.7,30.79,51.04,11.18,Clear
261,huaral,90,pe,1554566400,69,-11.5,-77.21,78.8,5.82,Clouds
262,galbshtadt,0,ru,1554567870,63,53.23,78.98,35.99,8.43,Clear
263,wagar,0,sd,1554567871,14,16.15,36.2,97.55,5.97,Clear
264,coquimbo,0,cl,1554562800,56,-29.95,-71.34,71.6,10.29,Clear
265,zhigansk,0,ru,1554567872,75,66.77,123.37,15.38,1.95,Clear
266,altay,0,cn,1554567873,76,47.83,88.13,31.49,5.64,Clear
267,umm kaddadah,0,sd,1554567873,6,13.6,26.69,97.82,5.75,Clear
268,igrim,12,ru,1554567874,62,63.19,64.42,32.03,8.1,Clouds
269,alyangula,40,au,1554562800,83,-13.85,136.42,80.6,17.22,Clouds
270,ouegoa,0,nc,1554567875,98,-20.34,164.44,69.47,7.54,Clear
271,vanimo,24,pg,1554567876,97,-2.67,141.3,84.05,7.43,Clouds
272,tura,88,ru,1554567877,73,64.27,100.22,30.23,8.21,Clouds
273,mount isa,0,au,1554566400,56,-20.73,139.49,73.4,5.82,Clear
274,ukiah,90,us,1554567619,87,39.15,-123.21,52.36,6.93,Rain
275,slavutych,0,ua,1554567879,31,51.52,30.76,57.32,7.2,Clear
276,meulaboh,68,id,1554567880,100,4.14,96.13,78.92,3.62,Rain
277,vardo,32,no,1554567880,96,70.37,31.11,37.97,21.18,Clouds
278,guadalupe victoria,5,mx,1554565500,60,21.68,-105.33,68.0,4.41,Clear
279,taybad,88,ir,1554567817,84,34.74,60.78,60.2,5.08,Rain
280,san matias,44,bo,1554567884,87,-16.36,-58.4,70.37,12.46,Clouds
281,lebu,0,cl,1554567884,96,-37.62,-73.65,55.25,15.82,Clear
282,necochea,0,ar,1554567622,63,-38.55,-58.74,68.57,15.48,Clear
283,galle,8,lk,1554567886,93,6.04,80.22,81.35,3.18,Clear
284,la orilla,32,mx,1554567886,87,18.0,-102.23,77.12,0.6,Clouds
285,clyde river,90,ca,1554562800,91,70.47,-68.59,3.2,42.5,Snow
286,doctor arroyo,44,mx,1554567759,72,23.67,-100.18,62.9,3.96,Clouds
287,victor harbor,20,au,1554567783,81,-35.55,138.62,53.1,4.07,Clouds
288,blagoyevo,0,ru,1554567665,71,63.37,47.92,38.69,4.18,Clear
289,east london,75,za,1554566400,77,-33.02,27.91,66.2,8.05,Clouds
290,natal,75,br,1554566400,62,-5.81,-35.21,86.0,14.99,Clouds
291,amethi,8,in,1554564600,58,26.76,81.16,86.0,4.7,Haze
292,loikaw,20,mm,1554567893,61,19.67,97.21,72.44,2.73,Clouds
293,amarante do maranhao,92,br,1554567893,100,-5.57,-46.74,73.7,3.29,Rain
294,hambantota,75,lk,1554563400,94,6.12,81.12,80.6,5.82,Clouds
295,chicama,75,pe,1554562800,83,-7.84,-79.15,71.6,10.29,Clouds
296,hermosillo,0,mx,1554567858,48,29.09,-110.96,70.57,4.18,Clear
297,hastings,92,nz,1554567866,100,-39.64,176.84,49.94,14.58,Rain
298,brighton,40,gb,1554567823,76,50.82,-0.14,50.31,14.99,Drizzle
299,darnah,24,ly,1554567897,96,32.77,22.64,61.64,20.29,Clouds
300,hervey bay,0,au,1554567347,93,-25.3,152.85,65.91,5.82,Clear
301,alta floresta,88,br,1554567898,91,-9.87,-56.08,77.75,2.84,Clouds
302,acajutla,0,sv,1554567657,68,13.59,-89.83,81.0,1.99,Clear
303,uberaba,75,br,1554562800,58,-19.75,-47.94,84.2,4.7,Clouds
304,luanda,75,ao,1554566400,83,-8.83,13.24,84.2,11.41,Clouds
305,manavalakurichi,75,in,1554564600,74,8.13,77.3,86.0,4.7,Haze
306,methoni,40,gr,1554567650,87,36.82,21.7,61.47,5.41,Clouds
307,duma,40,sy,1554566400,39,33.57,36.4,64.4,6.93,Clouds
308,great yarmouth,75,gb,1554567863,93,52.61,1.73,47.03,9.17,Clouds
309,nalut,0,ly,1554567905,32,31.86,10.98,75.14,10.67,Clear
310,marsabit,0,ke,1554567906,57,2.34,37.99,83.06,10.78,Clear
311,poum,0,nc,1554567907,100,-20.23,164.02,77.84,17.05,Clear
312,bilma,0,ne,1554567909,11,18.69,12.92,105.2,6.76,Clear
313,vostok,88,ru,1554567909,94,46.45,135.83,26.72,2.06,Clouds
314,tahta,0,eg,1554562800,21,26.77,31.5,81.46,9.17,Clear
315,pacific grove,75,us,1554567616,71,36.62,-121.92,54.3,3.36,Clouds
316,lorengau,68,pg,1554567912,98,-2.02,147.27,83.24,6.42,Clouds
317,grand-santi,48,gf,1554567912,82,4.27,-54.38,80.18,3.62,Rain
318,sola,75,vu,1554562800,94,-13.88,167.55,78.8,5.19,Clouds
319,anori,0,br,1554567914,67,-3.74,-61.66,89.9,7.65,Clear
320,port hedland,48,au,1554566400,78,-20.31,118.58,77.0,5.82,Clouds
321,tongzi,0,cn,1554567916,51,28.78,105.09,63.53,5.97,Clear
322,midland,0,us,1554566100,35,32.0,-102.08,67.78,4.7,Clear
323,hasaki,20,jp,1554567876,87,35.73,140.83,51.75,3.36,Clouds
324,araouane,0,ml,1554567918,19,18.9,-3.53,89.18,14.47,Clear
325,superior,90,us,1554567426,92,47.19,-114.89,39.42,4.7,Mist
326,lafiagi,20,ng,1554567920,37,8.85,5.42,101.78,3.96,Clouds
327,tateyama,100,jp,1554567776,62,36.66,137.31,50.04,1.01,Clouds
328,formosa,40,ar,1554562800,46,-26.19,-58.17,73.4,6.93,Clouds
329,kalmunai,8,lk,1554567922,89,7.42,81.82,77.84,4.63,Clear
330,mangan,80,in,1554567923,91,27.5,88.54,32.75,1.28,Clouds
331,cimislia,0,md,1554567480,30,46.52,28.78,58.41,12.75,Clear
332,noumea,90,nc,1554564600,88,-22.28,166.46,68.0,3.36,Clouds
333,esperance,0,au,1554562800,93,-33.86,121.89,48.2,4.85,Clear
334,sarahan,48,in,1554567926,90,31.51,77.79,21.32,0.72,Clouds
335,aykino,0,ru,1554567928,91,62.22,49.99,30.23,2.95,Clear
336,humberto de campos,92,br,1554567928,100,-2.6,-43.46,77.12,5.53,Rain
337,mount darwin,12,zw,1554567929,44,-16.77,31.58,82.25,8.21,Clouds
338,beyneu,64,kz,1554567930,53,45.32,55.19,55.25,16.6,Clouds
339,benghazi,92,ly,1554567931,98,32.12,20.07,62.0,19.73,Clouds
340,phangnga,20,th,1554564600,88,8.45,98.53,78.15,2.24,Clouds
341,porto belo,75,br,1554567903,83,-27.15,-48.54,73.09,8.05,Rain
342,tual,24,id,1554567933,96,-5.67,132.75,84.77,6.42,Clouds
343,saint-pierre,0,pm,1554566400,64,46.77,-56.17,37.17,18.34,Clear
344,the valley,20,ai,1554567397,54,18.22,-63.06,81.77,20.8,Clouds
345,beaverlodge,90,ca,1554565200,94,55.21,-119.43,32.0,6.93,Snow
346,banda aceh,36,id,1554567902,80,5.56,95.32,81.17,2.51,Clouds
347,salinopolis,88,br,1554567937,100,-0.61,-47.36,80.81,10.67,Clouds
348,aswan,0,eg,1554562800,9,24.09,32.9,91.4,1.12,Clear
349,hibbing,90,us,1554567625,75,47.43,-92.94,42.78,9.17,Clouds
350,raudeberg,12,no,1554567904,70,61.99,5.14,44.26,17.22,Clouds
351,rutana,0,bi,1554567683,69,-3.93,29.99,77.66,4.74,Clear
352,hope,90,ca,1554567503,86,49.38,-121.43,39.96,1.95,Clouds
353,evensk,0,ru,1554567941,89,61.92,159.24,24.56,4.63,Clear
354,bandarbeyla,0,so,1554567942,100,9.49,50.81,81.53,7.43,Clear
355,kanker,0,in,1554567943,31,20.27,81.49,83.15,6.64,Clear
356,pangnirtung,90,ca,1554562800,67,66.15,-65.72,19.4,6.93,Clouds
357,ballina,32,au,1554567726,88,-28.87,153.57,62.22,1.83,Clouds
358,turayf,75,sa,1554562800,37,31.68,38.65,69.8,9.17,Clouds
359,yar-sale,92,ru,1554567947,86,66.83,70.83,30.77,25.77,Clouds
360,lahaina,1,us,1554567868,77,20.87,-156.68,65.03,3.74,Clear
361,tsabong,0,bw,1554567948,18,-26.02,22.4,87.47,6.76,Clear
362,endicott,90,us,1554567682,87,42.1,-76.05,46.62,4.7,Clouds
363,ponta do sol,75,cv,1554566400,47,17.2,-25.09,78.8,29.97,Clouds
364,veraval,0,in,1554567951,74,20.9,70.37,80.72,10.45,Clear
365,saint george,75,bm,1554567507,77,32.38,-64.68,68.79,19.46,Clouds
366,grammichele,75,it,1554567907,82,37.21,14.64,59.52,10.29,Drizzle
367,mezen,8,ru,1554567953,72,65.85,44.24,36.17,7.2,Clear
368,waipawa,92,nz,1554567036,93,-39.94,176.59,42.01,5.19,Rain
369,maningrida,92,au,1554567955,100,-12.05,134.23,74.96,8.55,Rain
370,kenora,90,ca,1554567732,74,49.76,-94.48,35.98,3.62,Clouds
371,karratha,0,au,1554567957,50,-20.74,116.85,72.98,4.18,Clear
372,goch,20,de,1554567955,62,51.68,6.16,61.21,5.82,Haze
373,hofn,32,is,1554567959,100,64.25,-15.21,36.98,18.95,Clouds
374,sitka,88,us,1554567468,64,37.17,-99.65,64.99,11.01,Clouds
375,byron bay,40,au,1554567726,93,-28.65,153.62,62.71,1.83,Clouds
376,coruripe,48,br,1554567961,90,-10.12,-36.18,84.77,12.8,Clouds
377,rajshahi,48,bd,1554567962,86,24.37,88.59,74.6,4.74,Rain
378,sao joao da barra,20,br,1554562800,50,-21.64,-41.05,95.0,4.7,Clouds
380,vientiane,0,la,1554564600,78,17.96,102.61,84.36,3.62,Mist
381,qeshm,0,ir,1554564600,45,26.96,56.27,84.9,9.17,Clear
382,berdigestyakh,24,ru,1554567965,75,62.1,126.7,24.2,5.86,Clouds
383,roebourne,0,au,1554567966,50,-20.77,117.15,72.98,4.18,Clear
384,borazjan,75,ir,1554562800,39,29.27,51.21,84.2,4.18,Clouds
385,camacha,40,pt,1554566400,68,33.08,-16.33,65.43,20.8,Clouds
386,oranjemund,44,na,1554567719,91,-28.55,16.43,61.37,18.39,Clouds
387,hualmay,20,pe,1554567970,78,-11.1,-77.61,73.7,5.08,Clouds
388,zhangye,32,cn,1554567971,50,38.94,100.46,46.43,5.97,Clouds
389,ust-tsilma,12,ru,1554567971,63,65.44,52.15,33.38,6.53,Clouds
390,vestmannaeyjar,75,is,1554566400,88,63.44,-20.27,41.0,24.16,Clouds
391,tevaitoa,64,pf,1554567973,99,-16.78,-151.5,84.23,14.25,Clouds
392,college,20,us,1554567936,53,64.86,-147.8,24.87,6.93,Clouds
393,vao,80,nc,1554567974,100,-22.67,167.48,74.78,8.43,Clouds
394,kasempa,64,zm,1554567975,72,-13.46,25.83,73.97,7.43,Clouds
395,muros,75,es,1554567970,81,42.77,-9.06,50.68,9.17,Rain
396,mandalgovi,76,mn,1554567977,100,45.76,106.27,35.0,13.69,Rain
397,port washington,90,us,1554567975,93,43.39,-87.88,49.42,5.97,Mist
398,traralgon,0,au,1554567312,90,-38.19,146.54,48.45,1.01,Clear
399,changji,0,cn,1554567979,65,32.07,116.17,65.15,9.78,Clear
400,fort nelson,90,ca,1554564240,85,58.81,-122.69,24.8,3.36,Snow
401,wuhu,0,cn,1554562800,68,31.35,118.43,64.4,2.24,Clear
402,wawa,90,ca,1554565560,100,47.99,-84.77,35.6,4.7,Mist
403,kushiro,24,jp,1554567981,64,43.11,144.15,30.77,7.54,Clouds
404,batagay-alyta,68,ru,1554567982,78,67.8,130.41,15.38,2.73,Clouds
405,namibe,0,ao,1554567983,100,-15.19,12.15,78.74,7.99,Clear
406,morgan city,75,us,1554567801,88,29.7,-91.21,77.54,9.17,Clouds
407,belgrade,1,us,1554567965,61,45.77,-111.18,46.31,5.82,Clear
408,bonavista,32,ca,1554567452,58,48.65,-53.11,36.0,14.0,Clouds
409,cadillac,90,us,1554567906,58,44.25,-85.4,54.52,3.36,Clouds
410,san-pedro,0,ci,1554567987,68,4.75,-6.64,89.27,12.46,Clear
411,sisimiut,0,gl,1554567988,79,66.94,-53.67,32.75,5.3,Clear
412,nishihara,0,jp,1554567917,35,35.74,139.53,54.68,9.17,Clear
413,vallenar,0,cl,1554567989,62,-28.58,-70.76,69.2,3.06,Clear
414,ambon,44,id,1554567990,97,-3.7,128.18,82.52,0.94,Clouds
415,ketchikan,90,us,1554562560,75,55.34,-131.65,45.84,18.34,Clouds
416,rioja,48,pe,1554567992,76,-6.06,-77.17,75.68,3.29,Clouds
417,lagoa,75,pt,1554567733,63,37.14,-8.45,58.15,24.16,Rain
418,bukachacha,44,ru,1554567994,57,52.99,116.91,26.72,4.97,Clouds
419,berck,75,fr,1554567978,58,50.41,1.57,58.37,11.41,Clouds
420,kahului,1,us,1554567868,77,20.89,-156.47,65.39,3.74,Clear
421,trairi,88,br,1554567996,100,-3.28,-39.27,79.73,3.62,Rain
422,goulburn,24,au,1554567941,87,-34.75,149.72,53.38,4.29,Clouds
423,kaeo,24,nz,1554566884,94,-35.1,173.78,52.0,4.52,Rain
424,qaqortoq,75,gl,1554565800,26,60.72,-46.03,44.6,12.75,Clouds
425,peru,90,us,1554567842,76,41.33,-89.13,57.27,12.75,Clouds
426,pringsewu,20,id,1554568000,82,-5.36,104.98,76.85,3.74,Clouds
427,gualeguay,68,ar,1554568000,68,-33.15,-59.31,66.86,4.63,Clouds
428,tessalit,0,ml,1554568001,18,20.2,1.01,88.46,13.8,Clear
429,yerbogachen,0,ru,1554568002,63,61.28,108.01,23.21,7.31,Clear
430,fukue,20,jp,1554567896,71,35.03,136.69,51.94,5.82,Clouds
431,celestun,0,mx,1554568003,91,20.87,-90.4,79.82,16.26,Clear
432,road town,40,vg,1554567750,61,18.42,-64.62,81.34,13.87,Clouds
433,salalah,20,om,1554562200,74,17.01,54.1,82.4,9.17,Clouds
434,the pas,1,ca,1554562800,63,53.82,-101.24,30.2,10.29,Clear
435,muncar,88,id,1554568006,94,-8.43,114.34,80.99,3.51,Clouds
436,angleton,90,us,1554567991,88,29.17,-95.43,72.81,12.75,Mist
437,aran,90,az,1554566400,100,40.63,46.98,52.03,4.7,Rain
438,wufeng,0,cn,1554568008,70,27.44,104.87,47.96,2.62,Clear
439,terney,48,ru,1554568009,84,45.05,136.61,35.99,7.09,Clouds
440,constitucion,5,mx,1554567617,23,23.99,-104.67,60.91,4.7,Clear
441,okhotsk,68,ru,1554568010,77,59.36,143.24,31.85,5.41,Clouds
442,kamaishi,0,jp,1554568011,56,39.28,141.86,41.75,11.56,Clear
443,bambari,0,cf,1554568011,20,5.77,20.68,102.14,9.78,Clear
444,broome,92,au,1554566400,79,-17.97,122.23,87.8,10.29,Rain
445,shangqiu,36,cn,1554568013,68,34.42,115.65,59.3,8.66,Clouds
446,mabaruma,88,gy,1554568014,83,8.2,-59.78,80.81,9.44,Clouds
447,skegness,75,gb,1554567903,87,53.14,0.34,47.5,9.17,Clouds
448,lavumisa,64,sz,1554566400,78,-27.31,31.89,73.4,1.12,Clouds
449,mokolo,0,cm,1554566400,16,10.74,13.8,107.6,3.36,Clear
450,camiri,0,bo,1554562800,77,-20.04,-63.52,64.4,6.64,Clear
451,dyurtyuli,0,ru,1554568017,93,55.49,54.86,33.2,3.18,Clear
452,richards bay,56,za,1554568018,93,-28.77,32.06,67.94,12.91,Rain
453,katobu,92,id,1554568019,90,-4.94,122.53,84.05,2.39,Clouds
454,madanapalle,8,in,1554568020,35,13.56,78.5,80.54,6.64,Clear
455,san carlos de bariloche,0,ar,1554562800,29,-41.13,-71.31,62.6,21.92,Clear
456,vila velha,75,br,1554566400,74,-3.71,-38.6,82.72,14.99,Rain
457,riberalta,90,bo,1554562800,93,-11.0,-66.08,62.6,11.41,Rain
458,yumen,80,cn,1554568023,29,40.29,97.04,53.99,6.2,Clouds
459,bezhanitsy,64,ru,1554568024,36,56.97,29.88,53.45,11.01,Clouds
460,bhatkal,0,in,1554568025,100,13.97,74.57,84.41,16.49,Clear
461,kampot,20,kh,1554564600,83,10.62,104.18,78.87,1.12,Clouds
462,san antonio,75,ph,1554562800,83,15.31,120.85,80.6,9.17,Clouds
463,amos,90,ca,1554563820,81,48.57,-78.12,34.59,9.17,Snow
464,srandakan,92,id,1554568028,99,-7.94,110.25,74.51,2.62,Clouds
465,karsava,24,lv,1554568030,39,56.78,27.69,55.52,9.66,Clouds
466,port keats,88,au,1554568030,97,-14.25,129.55,78.38,9.22,Rain
467,adre,0,td,1554568031,12,13.47,22.2,99.17,4.52,Clear
468,progreso,0,mx,1554568032,82,20.25,-99.19,60.38,3.62,Clear
469,buluang,20,ph,1554562800,83,10.47,123.98,80.6,8.05,Clouds
470,guisijan,8,ph,1554568033,98,11.09,122.05,80.36,6.08,Clear
471,quesnel,1,ca,1554562800,68,52.98,-122.49,37.4,4.7,Clear
472,kupino,0,ru,1554568035,64,54.36,77.31,37.52,15.82,Clear
473,wa,36,gh,1554568035,46,10.06,-2.51,97.1,5.19,Clouds
474,kokkola,0,fi,1554566436,25,63.84,23.13,46.78,9.17,Clear
475,puerto varas,90,cl,1554565440,72,-41.32,-72.98,59.0,9.17,Clouds
476,lompoc,1,us,1554567746,76,34.64,-120.46,57.92,2.95,Clear
477,benjamin constant,40,br,1554566400,74,-4.38,-70.03,87.15,4.7,Clouds
478,qasigiannguit,75,gl,1554565800,47,68.82,-51.19,37.4,27.51,Clouds
479,roald,75,no,1554567904,70,62.58,6.12,42.21,16.11,Clouds
480,san ignacio,36,pe,1554568040,65,-5.15,-79.0,67.4,1.83,Clouds
481,flagstaff,40,us,1554567799,83,35.2,-111.65,50.45,4.7,Clouds
482,san luis,0,ar,1554567908,28,-33.3,-66.34,78.38,12.68,Clear
483,zrnovci,20,mk,1554566400,34,41.85,22.45,64.4,12.75,Clouds
484,moose factory,90,ca,1554566280,72,51.26,-80.61,15.8,5.82,Snow
485,concordia,75,ar,1554568012,73,-31.4,-58.02,70.3,5.82,Clouds
486,tautira,48,pf,1554567752,83,-17.73,-149.15,78.4,4.7,Clouds
487,lagunas,32,pe,1554568045,85,-5.23,-75.68,81.98,2.95,Rain
488,bridge city,90,us,1554567940,94,30.02,-93.85,73.9,10.29,Mist
489,abu kamal,12,sy,1554568046,73,34.45,40.92,64.97,2.95,Clouds
490,staraya poltavka,24,ru,1554568047,72,50.48,46.48,48.77,7.99,Clouds
491,honningsvag,92,no,1554568051,100,70.98,25.97,33.74,9.44,Clouds
492,fougamou,36,ga,1554568052,82,-1.22,10.59,85.58,3.4,Clouds
493,corinto,88,br,1554568052,97,-18.36,-44.46,72.26,4.97,Rain
494,masunga,75,bw,1554566400,57,-20.62,27.45,77.0,10.29,Clouds
495,mahibadhoo,88,mv,1554568055,100,3.78,72.97,83.06,4.18,Clouds
496,yuci,0,cn,1554566400,22,37.68,112.73,53.6,8.95,Clear
497,seydi,48,tm,1554568056,53,39.48,62.91,63.53,16.04,Clouds
498,mandurah,0,au,1554568013,77,-32.55,115.7,57.0,11.41,Clear
499,los llanos de aridane,75,es,1554567604,59,28.66,-17.92,62.24,16.11,Clouds
500,wolverhampton,40,gb,1554567947,53,52.58,-2.13,53.08,11.41,Clouds
501,moreira sales,80,br,1554568059,88,-24.05,-53.01,75.77,3.96,Rain
502,jiuquan,64,cn,1554568060,55,39.73,98.49,41.66,4.97,Clouds
503,arkhara,48,ru,1554568060,59,49.42,130.09,33.47,4.52,Clouds
504,puerto carreno,0,co,1554562800,59,6.19,-67.49,89.6,9.17,Haze
505,nadym,92,ru,1554568062,89,65.53,72.51,29.15,24.43,Clouds
506,maniitsoq,12,gl,1554568062,82,65.42,-52.9,34.37,9.33,Clouds
507,sorland,12,no,1554568063,98,67.67,12.69,40.58,7.99,Clouds
508,mossendjo,32,cg,1554568064,70,-2.95,12.72,85.58,2.95,Clouds
509,mahajanga,20,mg,1554566400,84,-15.72,46.32,86.0,2.24,Clouds
510,athabasca,88,ca,1554567868,90,54.72,-113.29,35.09,13.47,Rain
511,kawalu,76,id,1554568066,100,-7.38,108.21,69.2,2.39,Rain
